{
  "regions": [
    {
      "id": "altai",
      "name": "Алтайский край",
      "points": [
        {
          "id": "altai_1",
          "title": "Барнаул, Юрина 289",
          "description": "Пункт отбора военнослужащих на контракт",
          "phone": "+7 800 555-35-35",
          "hours": "пн-пт 08:00 - 19:00",
          "coordinates": [53.3482, 83.7799],
          "address": "Барнаул, ул. Юрина, 289"
        },
        {
          "id": "altai_2",
          "title": "Барнаул, Юрина 289",
          "description": "Пункт отбора военнослужащих на контракт",
          "phone": "+7 800 555-35-35",
          "hours": "пн-пт 08:00 - 19:00",
          "coordinates": [53.3482, 83.7799],
          "address": "Барнаул, ул. Юрина, 289"
        },
        {
          "id": "altai_3",
          "title": "Барнаул, Юрина 289",
          "description": "Пункт отбора военнослужащих на контракт",
          "phone": "+7 800 555-35-35",
          "hours": "пн-пт 08:00 - 19:00",
          "coordinates": [53.3482, 83.7799],
          "address": "Барнаул, ул. Юрина, 289"
        },
				{
          "id": "altai_4",
          "title": "Барнаул, Юрина 289",
          "description": "Пункт отбора военнослужащих на контракт",
          "phone": "+7 800 555-35-35",
          "hours": "пн-пт 08:00 - 19:00",
          "coordinates": [53.3482, 83.7799],
          "address": "Барнаул, ул. Юрина, 289"
        }
      ]
    }
  ]
}